type,date,score,sentences,place,latitude,longitude,feature_type,admin1_name,admin2_name,country_name,school,place_type,action,corrected_name,corrected_latlon,corrected_place_type,reviewer,place_count
comment,2025-01-24,1,"From other countries’ cultures and people to the military’s own social structures (enlisted and commissioned kids had very different backgrounds but we all went to the same schools), when I landed in America for college I was shocked at the de facto economic and racial segregation in our country.",United States,39.76,-98.5,independent political entity,,,United States,GMU,Country,,,,,,41
comment,2025-01-24,6,"Around 40% of US employees are hybrid or WFH - same as the federal government, doofus",United States,39.76,-98.5,independent political entity,,,United States,GMU,Country,,,,,,41
comment,2025-01-24,19,"I work in the Student DEI office at George Mason, it’s literally just supporting people from different back ground.",George Mason University Fairfax Campus,38.83088,-77.30794,school,Virginia,Fairfax County,United States,GMU,Building,,,,,,2
comment,2025-01-24,19,I work there because I am a first generation student with high school drop out parents from rural Virginia who didn’t know the first thing about college.,Virginia,37.54812,-77.44675,first-order administrative division,Virginia,,United States,GMU,State,,,,,,45
comment,2025-01-25,2,Like why are white men overrepresented in congress versus the actual US population?,United States,39.76,-98.5,independent political entity,,,United States,GMU,Country,,,,,,41
comment,2025-02-15,1,Is this in the USA?,United States,39.76,-98.5,independent political entity,,,United States,GMU,Country,,,,,,41
comment,2023-02-22,23,Pretty sure this girl I used to talk to worked in Crystal City and had to pay for parking.. not the first time I’ve heard of it either.,Crystal City,28.67748,-99.82811,seat of a second-order administrative division,Texas,Zavala County,United States,GMU,City,,,,,,1
comment,2023-02-23,4,A lot of people go to GMU and there isn't exactly a lot of land to go around in the DC area.,District of Columbia,38.91706,-77.00025,first-order administrative division,District of Columbia,,United States,GMU,State,,,,,,17
comment,2023-02-23,3,The other big joke is the gates they installed in Rapp deck.,Rapp,47.3961,7.84103,house(s),Basel-Landschaft,Bezirk Sissach,Switzerland,GMU,,,,,,,1
comment,2023-02-22,14,"I'm going to get mass downvoted for this, but parking costs money to maintain and America has coddled drivers to make them think they are entitled to a parking spot for owning a car.",United States,39.76,-98.5,independent political entity,,,United States,GMU,Country,,,,,,41
comment,2023-02-22,2," Based, bring this to osu",Ōzu,33.5,132.55,seat of a second-order administrative division,Ehime,Ōzu-shi,Japan,GMU,City,,,,,,1
comment,2026-04-13,1,I the Netherlands this would even be covered by the “liability insurance” that only cost around €4-10 a month.,The Netherlands,52.25,5.75,independent political entity,,,The Netherlands,GMU,Country,,,,,,1
comment,2026-04-13,1,(Don’t know how this is in the USA),United States,39.76,-98.5,independent political entity,,,United States,GMU,Country,,,,,,41
comment,2026-04-09,1,The Navy Yard kids in 10 years.,Navy Yard,40.69891,-73.97114,section of populated place,New York,Kings County,United States,GMU,Neighborhood,,,,,,1
comment,2025-12-15,1,I don’t know why I’m on the GMU subreddit since I’ve been graduated for 7 years from Tennessee but this same thing happened to me where the professor increased my score by .3 points so I could graduate cum laude.,Tennessee,35.75035,-86.25027,first-order administrative division,Tennessee,,United States,GMU,State,,,,,,2
comment,2024-09-25,5,"[gif](giphy|10bCgkbPzuKQog)

There is definitely a dolphins-taking-over-Springfield vibe here.",Springfield,42.10148,-72.58981,populated place,Massachusetts,Hampden County,United States,GMU,City,,,,,,2
comment,2022-12-07,4,The Southside one got me,Southside,39.78121,-76.39468,populated place,Pennsylvania,York County,United States,GMU,City,,,,,,27
comment,2022-12-09,2,I can't help but feel like the Rappahannock parking deck one is targeted toward me...,Rappahannock County,38.68471,-78.15925,second-order administrative division,Virginia,Rappahannock County,United States,GMU,State,,,,,,1
comment,2022-12-07,-10,I-66  are you from Cali?,Chali,40.88208,44.10553,canyon,Lori,,Armenia,GMU,Natural Feature,,,,,,1
comment,2023-03-30,1,"As an employee, the I-66 part got me.",Super 8 Manassas / I- 66,38.7993,-77.5212,hotel,Virginia,,United States,GMU,Building,,,,,,2
comment,2025-10-01,2,"But gooning is Ohio so get on God.""",Ohio,40.25034,-83.00018,first-order administrative division,Ohio,,United States,GMU,State,,,,,,4
comment,2025-10-04,2,He’s the Iglesias Pentacostal Church Vans you see around Fairfax and Springfield,Fairfax,40.33861,-95.39331,populated place,Missouri,Atchison County,United States,GMU,City,,,,,,1
comment,2025-10-04,2,He’s the Iglesias Pentacostal Church Vans you see around Fairfax and Springfield,Springfield,42.10148,-72.58981,populated place,Massachusetts,Hampden County,United States,GMU,City,,,,,,2
comment,2025-10-02,1,tell me you're not from nova from without telling me,Nova,65.65053,12.65206,point,Nordland,Vevelstad,Norway,GMU,Natural Feature,,,,,,4
comment,2025-10-03,1,"Pastor Jorge and Sister Cindy (""Ho No Mo"") -- a slut shamer, have free reign to minister on college campuses paid for with Virginia tax dollars... GMU is a state school, not a private one.",Virginia,37.54812,-77.44675,first-order administrative division,Virginia,,United States,GMU,State,,,,,,45
comment,2025-10-03,1,"They are not employed by the school, or the state of Virginia and they are not students!",Virginia,37.54812,-77.44675,first-order administrative division,Virginia,,United States,GMU,State,,,,,,45
post,2020-04-04,602,Dolphins have returned to Mason Pond,Mason Pond,41.64506,-72.80084,lake,Connecticut,Capitol Planning Region,United States,GMU,Natural Feature,,,,,,15
comment,2020-04-04,-21,Mason Pond is clearly manmade.,Mason Pond,41.64506,-72.80084,lake,Connecticut,Capitol Planning Region,United States,GMU,Natural Feature,,,,,,15
comment,2023-10-20,-3,"Run over to Giant for some raw calamari rings, and hand pieces to them.",Giant,37.99048,-122.35719,section of populated place,California,Contra Costa County,United States,GMU,Neighborhood,,,,,,1
comment,2025-02-12,32,"The snow ball fights are so fun, I wasn’t in this particular one, but I was in a few snow ball fights close to Southside and The Ridge.",Southside,39.78121,-76.39468,populated place,Pennsylvania,York County,United States,GMU,City,,,,,,27
comment,2025-02-12,32,"The snow ball fights are so fun, I wasn’t in this particular one, but I was in a few snow ball fights close to Southside and The Ridge.",The Ridge,44.13342,-76.4327,ridge(s),Ontario,,Canada,GMU,,,,,,,1
comment,2025-02-12,7,"We had a snowball fight in the commons outside Dickenson hall, too.",Dickenson Hall,38.83167,-77.30472,building(s),Virginia,City of Fairfax,United States,GMU,Building,,,,,,1
comment,2025-02-13,1,Is that Presidents Park?,Presidents Park,38.89562,-77.03651,park,District of Columbia,,United States,GMU,Neighborhood,,,,,,3
comment,2023-11-17,25,They stopped at the stop sign near Lot A and I was crossing then all of a sudden they drive directly at me then stop right in front of me and there’s two girls just laughing at me then they drive off.,Altamaha River,31.31578,-81.28482,stream,Georgia,McIntosh County,United States,GMU,Natural Feature,,,,,,1
comment,2025-02-15,4,The amount of social climbers at Mason is absurd.,Mason County,43.95625,-86.42258,second-order administrative division,Michigan,Mason County,United States,GMU,State,,,,,,28
post,2025-03-06,526,Graffiti at exploratory this morning,Miles Exploratory Learning Center,32.22101,-110.95023,school,Arizona,Pima County,United States,GMU,Building,,,,,,2
comment,2025-03-13,3,The Virginia flag goes so hard.,Virginia,37.54812,-77.44675,first-order administrative division,Virginia,,United States,GMU,State,,,,,,45
comment,2025-03-07,-2,"Unless that is your building u r defacing then u should be arrested for vandalism

I saw the same thing in cali 4 yrs ago

PS   If u vandalized i hope this post is used as evidence of a crime.",Derbent,42.06622,48.28759,seat of a second-order administrative division,Dagestan,,Russia,GMU,City,,,,,,2
comment,2025-03-07,0,I think they meant president of the United States.,Territories of the United States,35.27766,-102.35403,region,,,United States,GMU,Region,,,,,,4
comment,2020-10-15,10,Only picture where GMU actually looks nice ...nice job!,Gauriyamau,26.75703,81.79366,railroad station,Uttar Pradesh,Ayodhya,India,GMU,Road,,,,,,9
comment,2020-10-15,18,"You can see the through the end of the first pic, that’s the whole new glass building constructed beside the Fenwick!",Fenwick,41.27093,-72.35369,populated place,Connecticut,Lower Connecticut River Valley Planning Region,United States,GMU,City,,,,,,7
comment,2026-02-06,22,is this arlington or fairfax?,Arlington,40.4259,-79.9745,section of populated place,Pennsylvania,Allegheny County,United States,GMU,Neighborhood,,,,,,2
comment,2026-02-06,22,"If Fairfax, I haven't been there in ages.. looks so new and modern lol",Fairfax,38.84622,-77.30637,seat of a second-order administrative division,Virginia,City of Fairfax,United States,GMU,City,,,,,,20
comment,2026-01-26,18,Pic was taken by the entrance to planetary,Mannheim Planetary,49.47728,8.49287,building(s),Baden-Wurttemberg,Karlsruhe Region,Germany,GMU,Building,,,,,,5
comment,2025-09-06,21,what did washington do?,Washington,47.50012,-120.50147,first-order administrative division,Washington,,United States,GMU,State,,,,,,4
comment,2025-09-08,3,Both are menaces to NY!,New York City,40.71427,-74.00597,populated place,New York,,United States,GMU,City,,,,,,6
comment,2020-10-19,15,Lol I got called out for not citing the Gettysburg address,Gettysburg,39.83093,-77.2311,seat of a second-order administrative division,Pennsylvania,Adams County,United States,GMU,City,,,,,,1
comment,2026-01-13,3,"""King, whose father was a policeman, attended The Duke Ellington High School of Performing Arts in Washington, D.C. and later attended Towson University in Baltimore, Maryland. """,Reisterstown,39.46976,-76.8319,populated place,Maryland,Baltimore County,United States,GMU,City,,,,,,1
comment,2026-01-13,3,"""King, whose father was a policeman, attended The Duke Ellington High School of Performing Arts in Washington, D.C. and later attended Towson University in Baltimore, Maryland. """,District of Columbia,38.91706,-77.00025,first-order administrative division,District of Columbia,,United States,GMU,State,,,,,,17
comment,2026-01-13,3,"""King, whose father was a policeman, attended The Duke Ellington High School of Performing Arts in Washington, D.C. and later attended Towson University in Baltimore, Maryland. """,Baltimore,39.29038,-76.61219,seat of a second-order administrative division,Maryland,City of Baltimore,United States,GMU,City,,,,,,1
comment,2026-01-13,3,"""King, whose father was a policeman, attended The Duke Ellington High School of Performing Arts in Washington, D.C. and later attended Towson University in Baltimore, Maryland. """,Maryland,39.00039,-76.74997,first-order administrative division,Maryland,,United States,GMU,State,,,,,,8
comment,2019-03-26,1,I thought he was teaching in London tho,London,51.50853,-0.12574,capital of a political entity,England,Greater London,United Kingdom,GMU,City,,,,,,2
comment,2019-03-25,-10,facts are facts america,United States,39.76,-98.5,independent political entity,,,United States,GMU,Country,,,,,,41
comment,2019-03-25,2,Yeah a two week seminar in London for the summer and ne gorsuch for the same but in Padua Italy.,London,51.50853,-0.12574,capital of a political entity,England,Greater London,United Kingdom,GMU,City,,,,,,2
comment,2019-03-25,2,Yeah a two week seminar in London for the summer and ne gorsuch for the same but in Padua Italy.,Padua,45.40797,11.88586,seat of a second-order administrative division,Veneto,Provincia di Padova,Italy,GMU,City,,,,,,1
comment,2019-03-25,2,Yeah a two week seminar in London for the summer and ne gorsuch for the same but in Padua Italy.,Italian Republic,42.83333,12.83333,independent political entity,,,Italy,GMU,Country,,,,,,3
comment,2019-03-26,4,They still probably think Russia & Venezuela are communist anyway.,Russian Federation,60.0,100.0,independent political entity,,,Russia,GMU,Country,,,,,,1
comment,2019-03-26,4,They still probably think Russia & Venezuela are communist anyway.,Bolivarian Republic of Venezuela,8.0,-66.0,independent political entity,,,Venezuela,GMU,Country,,,,,,1
post,2026-01-31,430,President Washington alongside Virginia’s New Governor Spanberger,Virginia,37.54812,-77.44675,first-order administrative division,Virginia,,United States,GMU,State,,,,,,45
comment,2026-02-01,6,Ah yes he’s so happy to be in the presence of the worst governor in Virginia history.,Virginia,37.54812,-77.44675,first-order administrative division,Virginia,,United States,GMU,State,,,,,,45
comment,2026-02-04,1,In Williamsburg.,City of Williamsburg,37.2707,-76.70746,second-order administrative division,Virginia,City of Williamsburg,United States,GMU,State,,,,,,1
post,2025-03-09,426,"#HERstory made today in Henrico, VA!",Henrico County,37.45771,-77.29646,second-order administrative division,Virginia,Henrico County,United States,GMU,State,,,,,,1
post,2025-03-09,426,"#HERstory made today in Henrico, VA!",Virginia,37.54812,-77.44675,first-order administrative division,Virginia,,United States,GMU,State,,,,,,45
comment,2025-03-10,3,High point just did it today in the Big South tournament,Big South Windmill,30.24797,-99.5995,,Texas,Kerr County,United States,GMU,,,,,,,1
post,2021-01-06,424,A very kind soul slipped this under the door for me as I was sobbing in a bathroom stall in Exploratory my sophomore year of college.,Vista PEAK Exploratory School,39.7192,-104.70111,school,Colorado,Arapahoe County,United States,GMU,Building,,,,,,3
comment,2022-12-02,14,Wait so non-Mason students can get away with getting parking tickets at Mason?,Mason County,30.71772,-99.22613,second-order administrative division,Texas,Mason County,United States,GMU,State,,,,,,2
comment,2022-12-02,8,"Same thing if you get a **parking, red light, or speed camera ticket** in DC or MD.",District of Columbia,38.91706,-77.00025,first-order administrative division,District of Columbia,,United States,GMU,State,,,,,,17
comment,2022-12-02,8,"Same thing if you get a **parking, red light, or speed camera ticket** in DC or MD.",Maryland,39.00039,-76.74997,first-order administrative division,Maryland,,United States,GMU,State,,,,,,8
comment,2022-12-02,5,I need more context i worked in DC for few months and got three speeding ticket in the same place and time each time.,District of Columbia,38.91706,-77.00025,first-order administrative division,District of Columbia,,United States,GMU,State,,,,,,17
comment,2022-12-03,1,I've gotten 3 speed camera tickets in Maryland and paid them all off; the car isn't registered to me either,Maryland,39.00039,-76.74997,first-order administrative division,Maryland,,United States,GMU,State,,,,,,8
comment,2026-02-04,4,Who actually cares about mason sports,Mason County,43.95625,-86.42258,second-order administrative division,Michigan,Mason County,United States,GMU,State,,,,,,28
comment,2025-08-26,63,"I've always found Washington pretty milquetoast, I'm extremely glad to see this.",Washington,47.50012,-120.50147,first-order administrative division,Washington,,United States,GMU,State,,,,,,4
comment,2020-09-20,18,"Having taken a class in Krug, I'd be surprised if it's not one of the original buildings.",Krug,43.71917,17.10278,cliff(s),Federation of B&H,,Bosnia and Herzegovina,GMU,,,,,,,1
comment,2020-09-20,3,"I feel like there has been construction there for decades now, similar to UMCP.",University of Maryland - College Park,38.98861,-76.9397,school,Maryland,Prince George's County,United States,GMU,Building,,,,,,1
comment,2020-09-20,3,The growth in DC metropolitan area is just huge.,District of Columbia,38.91706,-77.00025,first-order administrative division,District of Columbia,,United States,GMU,State,,,,,,17
comment,2020-09-20,22,"West, East, Krug, and Finley are the original 4 Fairfax Campus buildings (Krug and Finley may have originally been named ""South"" and ""North"").",West Village,42.56676,-71.112,populated place,Massachusetts,Middlesex County,United States,GMU,City,,,,,,1
comment,2020-09-20,22,"West, East, Krug, and Finley are the original 4 Fairfax Campus buildings (Krug and Finley may have originally been named ""South"" and ""North"").",Austurland,65.0,-15.0,first-order administrative division,East,,Iceland,GMU,State,,,,,,3
comment,2020-09-20,22,"West, East, Krug, and Finley are the original 4 Fairfax Campus buildings (Krug and Finley may have originally been named ""South"" and ""North"").",Krug,38.51796,-122.48165,populated place,California,Napa County,United States,GMU,City,,,,,,2
comment,2020-09-20,22,"West, East, Krug, and Finley are the original 4 Fairfax Campus buildings (Krug and Finley may have originally been named ""South"" and ""North"").",Finley,33.74621,-96.18609,populated place,Texas,Fannin County,United States,GMU,City,,,,,,2
comment,2020-09-20,22,"West, East, Krug, and Finley are the original 4 Fairfax Campus buildings (Krug and Finley may have originally been named ""South"" and ""North"").",Fairfax Learning Center,39.14029,-94.63265,school,Kansas,Wyandotte County,United States,GMU,Building,,,,,,2
comment,2020-09-20,22,"West, East, Krug, and Finley are the original 4 Fairfax Campus buildings (Krug and Finley may have originally been named ""South"" and ""North"").",Krug,38.51796,-122.48165,populated place,California,Napa County,United States,GMU,City,,,,,,2
comment,2020-09-20,22,"West, East, Krug, and Finley are the original 4 Fairfax Campus buildings (Krug and Finley may have originally been named ""South"" and ""North"").",Finley,33.74621,-96.18609,populated place,Texas,Fannin County,United States,GMU,City,,,,,,2
comment,2020-09-20,22,"West, East, Krug, and Finley are the original 4 Fairfax Campus buildings (Krug and Finley may have originally been named ""South"" and ""North"").",Suðurland,64.0,-19.0,first-order administrative division,South,,Iceland,GMU,State,,,,,,1
comment,2020-09-20,22,"Classes were first held in an [old school near Bailey's Crossroads](http://ahistoryofmason.gmu.edu/exhibits/show/schoolhouse/contents/schoolhouse), but this was temporary while Fairfax campus was planned and built.",Fairfax,38.84622,-77.30637,seat of a second-order administrative division,Virginia,City of Fairfax,United States,GMU,City,,,,,,20
comment,2020-09-20,3,I believe that's the Inova Emergency room and Sunrise at George Mason (Senior Living facility).,Inova,-19.51667,28.6,hill,Matabeleland North,,Zimbabwe,GMU,Natural Feature,,,,,,1
comment,2020-09-20,3,I believe that's the Inova Emergency room and Sunrise at George Mason (Senior Living facility).,Sunrise,36.07314,-83.79129,populated place,Tennessee,Knox County,United States,GMU,City,,,,,,1
comment,2026-02-11,9,"Reminds me of the sign in Horizon last week that said ""Please be quite""",Horizon,39.68575,20.88265,hotel,Epirus,Nomós Ioannínon,Greece,GMU,Building,,,,,,2
comment,2026-02-10,38,Nah GMU is the MIT of Fairfax,Fairfax,38.84622,-77.30637,seat of a second-order administrative division,Virginia,City of Fairfax,United States,GMU,City,,,,,,20
comment,2020-09-30,2,"nature is healing, the bears are coming back to gmu",Greenville Downtown Airport,34.85031,-82.3509,airport,South Carolina,Greenville County,United States,GMU,Building,,,,,,11
comment,2020-10-01,1,Between 1900 and 2009 there have only been 63 people killed by black bears in the US and Canada.,United States,39.76,-98.5,independent political entity,,,United States,GMU,Country,,,,,,41
comment,2020-10-01,1,Between 1900 and 2009 there have only been 63 people killed by black bears in the US and Canada.,Canada,60.10867,-113.64258,independent political entity,,,Canada,GMU,Country,,,,,,2
comment,2020-10-01,1,"https://www.smithsonianmag.com/science-nature/how-to-avoid-being-eaten-by-a-black-bear-179225111/ 

None of which were in Virginia.",Virginia,37.54812,-77.44675,first-order administrative division,Virginia,,United States,GMU,State,,,,,,45
comment,2020-09-11,1,Most nights I’d go to Mason Pond until I felt like leaving.,Mason Pond,41.64506,-72.80084,lake,Connecticut,Capitol Planning Region,United States,GMU,Natural Feature,,,,,,15
comment,2025-12-18,5,"Edit: I might also add I first started community college in California around 2004, and again went to community college for a year in Arizona circa 2007.",California,37.25022,-119.75126,first-order administrative division,California,,United States,GMU,State,,,,,,1
comment,2025-12-18,5,"Edit: I might also add I first started community college in California around 2004, and again went to community college for a year in Arizona circa 2007.",Arizona,34.5003,-111.50098,first-order administrative division,Arizona,,United States,GMU,State,,,,,,1
comment,2020-07-21,6,"We were pretty chill, and luckily had a house (might still) literally 2 blocks north of campus on University Dr.",Hampton Inn & Suites Salt Lake City University-Foothill Dr.,40.74048,-111.82554,hotel,Utah,Salt Lake County,United States,GMU,Building,,,,,,1
comment,2020-07-21,-3,"Now, the U.S. was fundamentally founded on capitalism so if that something that you don’t agree with that’s your choice, but in this case it is fair to say why not go elsewhere then?",United States,39.76,-98.5,independent political entity,,,United States,GMU,Country,,,,,,41
comment,2020-07-21,1,"There’s a reason why Amazon, Microsoft, Netflix, Apple, Google, Twitter, hell even the very platform we’re having this discussion on right now, and pretty much any other major revolutionary company, all originated in the U.S. There’s a reason why our top universities are more prestigious than those of other Western countries even though their top institutions have been around a lot longer.",United States,39.76,-98.5,independent political entity,,,United States,GMU,Country,,,,,,41
comment,2020-07-21,1,"And finally, there is a reason why people from all over the world want to immigrate to “America”.",United States,39.76,-98.5,independent political entity,,,United States,GMU,Country,,,,,,41
comment,2020-07-21,1,"I’m neither white, even remotely wealthy, nor a natural-born American; I immigrated here with my family, leaving our relatively well-off life and coming here where we were essentially poor for the first decade plus, so to be clear this is not some patriotism-blinded view of the U.S.",United States,39.76,-98.5,independent political entity,,,United States,GMU,Country,,,,,,41
comment,2020-07-21,1,"So that said, we have our fair share of problems like any other country, and constructively critiquing specifics of where you think capitalism or any aspects of the U.S. fall short, in order to improve it (as every engaged citizen should do), is one thing, but completely trashing it as a concept altogether (what you basically did about capitalism, and what many do regarding the U.S. as a whole) is another.",United States,39.76,-98.5,independent political entity,,,United States,GMU,Country,,,,,,41
comment,2020-07-21,1,"So that said, we have our fair share of problems like any other country, and constructively critiquing specifics of where you think capitalism or any aspects of the U.S. fall short, in order to improve it (as every engaged citizen should do), is one thing, but completely trashing it as a concept altogether (what you basically did about capitalism, and what many do regarding the U.S. as a whole) is another.",United States,39.76,-98.5,independent political entity,,,United States,GMU,Country,,,,,,41
comment,2022-12-13,1,"In addition, if you’re coming here to the Fairfax campus, Fairfax City not half a mile north is an excellent place for food and errands.",Fairfax,38.84622,-77.30637,seat of a second-order administrative division,Virginia,City of Fairfax,United States,GMU,City,,,,,,20
comment,2022-12-13,1,"In addition, if you’re coming here to the Fairfax campus, Fairfax City not half a mile north is an excellent place for food and errands.",Fairfax,38.84622,-77.30637,seat of a second-order administrative division,Virginia,City of Fairfax,United States,GMU,City,,,,,,20
comment,2022-12-13,3,North Carolina,North Carolina,35.50069,-80.00032,first-order administrative division,North Carolina,,United States,GMU,State,,,,,,1
post,2024-10-04,361,Average JC hallway flier,Jc Contemporary,41.79959,12.47982,hotel,Lazio,Città metropolitana di Roma Capitale,Italy,GMU,Building,,,,,,4
comment,2020-08-26,14,I'm on the Arlington campus.,Arlington,32.73569,-97.10807,populated place,Texas,Tarrant County,United States,GMU,City,,,,,,12
comment,2020-08-27,3,I know its normal in Spain.,Kingdom of Spain,40.0,-4.0,independent political entity,,,Spain,GMU,Country,,,,,,2
comment,2020-08-26,1,"Can't think of any place on Mason like this - but if this isn't Mason, we need it here!",Mason County,43.95625,-86.42258,second-order administrative division,Michigan,Mason County,United States,GMU,State,,,,,,28
comment,2023-09-03,1,"The protesters at Southside or the Johnson Center, they just show up and bother everyone.",Southside,17.96569,-76.78624,second-order administrative division,Kingston,Southside,Jamaica,GMU,State,,,,,,1
comment,2023-09-03,1,"The protesters at Southside or the Johnson Center, they just show up and bother everyone.",Johnson Center for The Arts,39.47806,-86.0475,building(s),Indiana,Johnson County,United States,GMU,Building,,,,,,6
comment,2025-01-21,1,"This was at The Grove, but I also went around campus this morning and found fox prints in a lot of grassy/wooded areas",The Grove,51.67708,-0.43825,golf course,England,Hertfordshire,United Kingdom,GMU,Building,,,,,,1
comment,2020-03-17,3,"Shit I'll send them an email too and I don't even go to Mason anymore, I just want to bother the devil-on-earth that is Mason parking",Mason County,43.95625,-86.42258,second-order administrative division,Michigan,Mason County,United States,GMU,State,,,,,,28
comment,2020-03-17,3,"Shit I'll send them an email too and I don't even go to Mason anymore, I just want to bother the devil-on-earth that is Mason parking",Mason County,43.95625,-86.42258,second-order administrative division,Michigan,Mason County,United States,GMU,State,,,,,,28
comment,2025-10-16,3,"""Shibboleth"" is actually the name of the open-source single sign-on infrastructure they have been using for a long time.",Shibboleth,38.00561,-90.70541,populated place,Missouri,Washington County,United States,GMU,City,,,,,,1
comment,2022-04-26,152,GMU where the G stands for Gnowledge,Greenville Downtown Airport,34.85031,-82.3509,airport,South Carolina,Greenville County,United States,GMU,Building,,,,,,11
comment,2022-04-26,41,They’ve gone to Eastern Shore and Hampton Roads,Eastern Shore,38.50012,-75.49964,area,Delaware,Sussex County,United States,GMU,Building,,,,,,1
comment,2022-04-26,41,They’ve gone to Eastern Shore and Hampton Roads,Hampton Roads,36.97515,-76.34967,harbor(s),Virginia,City of Hampton,United States,GMU,Road,,,,,,3
comment,2025-11-26,1,in hs,Kfar Hess,32.24714,34.93562,populated place,Central District,,Israel,GMU,City,,,,,,1
comment,2025-03-07,-15,Feel free to move to the middle east,Al Bank al Brīţānī lish Sharq al Awsaţ,25.2643,55.29326,bank,Dubai,,United Arab Emirates,GMU,Natural Feature,,,,,,3
comment,2025-03-07,12,"No thanks, don't want to get bombed by the US",United States,39.76,-98.5,independent political entity,,,United States,GMU,Country,,,,,,41
comment,2025-03-07,10,"Just above this post I had this … https://www.reddit.com/r/washingtondc/s/cmcG5VNgB0 and another post about Warren County, VA closing the Front Royal Public Library because they have LGBTQ books.",Warren County,38.90878,-78.20746,second-order administrative division,Virginia,Warren County,United States,GMU,State,,,,,,1
comment,2025-03-07,10,"Just above this post I had this … https://www.reddit.com/r/washingtondc/s/cmcG5VNgB0 and another post about Warren County, VA closing the Front Royal Public Library because they have LGBTQ books.",Virginia,37.54812,-77.44675,first-order administrative division,Virginia,,United States,GMU,State,,,,,,45
comment,2025-03-07,10,That’s a bit closer than the Middle East.,Al Bank al Brīţānī lish Sharq al Awsaţ,25.2643,55.29326,bank,Dubai,,United Arab Emirates,GMU,Natural Feature,,,,,,3
comment,2019-05-12,3,I thought George Masons campus was just a Starbucks parking lot in Nova,Nova,64.48632,11.0805,valley,Trøndelag,Namsos,Norway,GMU,Natural Feature,,,,,,4
comment,2019-05-09,4,"Before that was Exploratory, before that was all the other newish dorms and Merten Hall",Vista PEAK Exploratory School,39.7192,-104.70111,school,Colorado,Arapahoe County,United States,GMU,Building,,,,,,3
post,2022-03-25,333,This is for the dudes racing their loud cars in the middle of the night on Braddock,Braddock Hills,40.41729,-79.86505,populated place,Pennsylvania,Allegheny County,United States,GMU,City,,,,,,1
comment,2022-04-23,2,this happens constantly at the shenandoah parking deck,Shenandoah,40.82037,-76.20077,populated place,Pennsylvania,Schuylkill County,United States,GMU,City,,,,,,1
comment,2018-11-10,77,"It wasn’t our fault but now we have to do extra work, because if eagle bank arena….",Eagle Bank,-30.25118,139.91602,stream bank,South Australia,,Australia,GMU,Natural Feature,,,,,,8
comment,2018-11-10,18,if eagle bank arena what????,Eagle Bank,-30.25118,139.91602,stream bank,South Australia,,Australia,GMU,Natural Feature,,,,,,8
comment,2020-06-21,28,I thought you said West!,West,42.77268,-116.9579,region,,,United States,GMU,Region,,,,,,1
comment,2025-10-04,30,I've never seen a bird like that in VA,Virginia,37.54812,-77.44675,first-order administrative division,Virginia,,United States,GMU,State,,,,,,45
comment,2025-10-06,3,It was by the long wooden bridge in the wooded area past the mason pond parking deck,Mason Pond,41.64506,-72.80084,lake,Connecticut,Capitol Planning Region,United States,GMU,Natural Feature,,,,,,15
comment,2025-10-05,1,"Some species experience strong natural selection for rapidly increased fertility when population drops significantly, that's why big cities like New York City can never get rid of all their rats or other rodents.",New York City,40.71427,-74.00597,populated place,New York,,United States,GMU,City,,,,,,6
comment,2025-10-04,6,They're EVERYWHERE if you check my profile I posted a picture of a tree outside of Southside I found on my way back to my hall yesterday,Southside,39.78121,-76.39468,populated place,Pennsylvania,York County,United States,GMU,City,,,,,,27
comment,2025-10-04,7,"they were introduced to the US in the mid 2010s, only have been in VA for a couple years",United States,39.76,-98.5,independent political entity,,,United States,GMU,Country,,,,,,41
comment,2025-10-04,7,"they were introduced to the US in the mid 2010s, only have been in VA for a couple years",Virginia,37.54812,-77.44675,first-order administrative division,Virginia,,United States,GMU,State,,,,,,45
comment,2025-10-04,21,"You actually should, as they're invasive - they've multiplied in such large numbers due to having no natural predators here in the US, and have been consuming resources normally used by other insects

So by not killing you're allowing non invasive species to die, which will then limit food for birds, killing birds, etc.- you kill a lot more creatures by not killing lanternflies than by killing them",United States,39.76,-98.5,independent political entity,,,United States,GMU,Country,,,,,,41
comment,2020-07-29,52,"Use the “search by Officer name” option and input his name: “John Spivey”

- When you search the New Orleans address (5414 Constance street) listed on the website above its actually a run down looking house.",New Orleans,29.95465,-90.07507,seat of a second-order administrative division,Louisiana,Orleans Parish,United States,GMU,City,,,,,,2
comment,2020-07-30,7,"I wouldn't trust a lawn service with a web site like this to mow my lawn, much less handle medical testing for the largest university in the state of Virginia.",Virginia,37.54812,-77.44675,first-order administrative division,Virginia,,United States,GMU,State,,,,,,45
comment,2020-07-31,6,So now we have no idea if we're actually clear or not and might have just exposed each other and may be the start of an outbreak in Richmond.,Richmond,37.55376,-77.46026,seat of a first-order administrative division,Virginia,City of Richmond,United States,GMU,City,,,,,,6
comment,2024-12-01,1,Please converse with other students with respect and keep in mind that Mason is an academic environment.,Mason County,43.95625,-86.42258,second-order administrative division,Michigan,Mason County,United States,GMU,State,,,,,,28
comment,2024-12-01,-3,Please converse with other students with respect and keep in mind that Mason is an academic environment.,Mason County,43.95625,-86.42258,second-order administrative division,Michigan,Mason County,United States,GMU,State,,,,,,28
post,2026-03-08,329,Here’s the Wilkin’s Plaza clock tower speeding up on Daylight Savings Time,Plaza,60.38637,23.12412,mall,Southwest Finland,,Finland,GMU,Building,,,,,,1
comment,2025-08-25,1,Idk why this reminded of Bing Bong from Peak… I might be cooked in the head.,Peak,-39.22824,175.09021,hill,Wellington Region,,New Zealand,GMU,Natural Feature,,,,,,1
comment,2020-03-21,30,But I bet it won’t because...GMU,Gauriyamau,26.75703,81.79366,railroad station,Uttar Pradesh,Ayodhya,India,GMU,Road,,,,,,9
comment,2021-04-25,19,And Mason Pond was looking so beautiful lately...,Mason Pond,41.64506,-72.80084,lake,Connecticut,Capitol Planning Region,United States,GMU,Natural Feature,,,,,,15
comment,2026-01-26,36,I’m a grad student in Arlington.,Arlington,32.73569,-97.10807,populated place,Texas,Tarrant County,United States,GMU,City,,,,,,12
comment,2026-01-27,12,Literally everyone from (at least) Central VA all the way to Maryland is closed and Mason just has to be that special?,VA Central Western Massachusetts Healthcare System,45.05313,-69.88199,populated place,Maine,Somerset County,United States,GMU,City,,,,,,1
comment,2026-01-27,12,Literally everyone from (at least) Central VA all the way to Maryland is closed and Mason just has to be that special?,Maryland,39.00039,-76.74997,first-order administrative division,Maryland,,United States,GMU,State,,,,,,8
comment,2026-01-26,9,"Considering I can’t open my door in Maryland, nope.",Maryland,39.00039,-76.74997,first-order administrative division,Maryland,,United States,GMU,State,,,,,,8
comment,2026-01-26,5,Wait should I just stay in DC?,District of Columbia,38.91706,-77.00025,first-order administrative division,District of Columbia,,United States,GMU,State,,,,,,17
comment,2026-01-27,1,Literally ALL Washington DC government and FCPS are closed.,District of Columbia,38.91706,-77.00025,first-order administrative division,District of Columbia,,United States,GMU,State,,,,,,17
post,2020-08-10,304,The new brick path to Southside,Southside,37.86747,-122.25281,section of populated place,California,Alameda County,United States,GMU,Neighborhood,,,,,,1
comment,2020-08-11,2,"Mason construction: 1 

General inconveniences caused by the construction:",Mason County,30.71772,-99.22613,second-order administrative division,Texas,Mason County,United States,GMU,State,,,,,,2
comment,2020-08-12,0,I'm still not going to Southside.,Southside,39.78121,-76.39468,populated place,Pennsylvania,York County,United States,GMU,City,,,,,,27
comment,2020-08-10,8,In fact they also moved the statue in between Music Theater and Mason Hall.,Comcast Theatre,41.77984,-72.66934,building(s),Connecticut,Capitol Planning Region,United States,GMU,Building,,,,,,1
comment,2020-08-10,8,In fact they also moved the statue in between Music Theater and Mason Hall.,Mason Hall,38.82861,-77.30889,building(s),Virginia,City of Fairfax,United States,GMU,Building,,,,,,1
comment,2020-08-11,6,The only other photo I took today is of the new Horizon Building which I can say is almost complete.,Horizon Building,46.82389,-100.81306,building(s),North Dakota,Burleigh County,United States,GMU,Building,,,,,,2
comment,2020-08-11,1,Then you can finish the walk by stopping at mason pond and looking at the lake paid for with the tears of grad students forced into near slavery ahhh i love that smell in the morning,Mason Pond,41.64506,-72.80084,lake,Connecticut,Capitol Planning Region,United States,GMU,Natural Feature,,,,,,15
comment,2026-02-08,4,Japan has really been showing up!,Japan,35.68536,139.75309,independent political entity,,,Japan,GMU,Country,,,,,,3
comment,2026-02-08,8,And as a team Japan places second and all team members will get silver medals.,Japan,35.68536,139.75309,independent political entity,,,Japan,GMU,Country,,,,,,3
comment,2025-02-26,4,Seeing all of the posts about parking on Fairfax campus I'm perfectly happy to never have to go there.,Fairfax,38.84622,-77.30637,seat of a second-order administrative division,Virginia,City of Fairfax,United States,GMU,City,,,,,,20
comment,2020-07-22,55,"God, I miss waking up from temporary death in Rogers, ordering a Dunkin’ Donuts starship, knocking out for another 40 mins, and then starting my day RIGHT",Rogers,45.18889,-93.55556,,Minnesota,Hennepin County,United States,GMU,,,,,,,2
comment,2020-07-12,42,"Ya know, they may have wanted to get GMU to be less of a commuter school... but they have now taken the commute out of school entirely",Greenville Downtown Airport,34.85031,-82.3509,airport,South Carolina,Greenville County,United States,GMU,Building,,,,,,11
comment,2020-12-10,28,I think this post and others similar goes to show how people’s experiences at Mason don’t foreshadow others.,Mason County,43.95625,-86.42258,second-order administrative division,Michigan,Mason County,United States,GMU,State,,,,,,28
post,2020-09-10,285,Spain with s silent,Kingdom of Spain,40.0,-4.0,independent political entity,,,Spain,GMU,Country,,,,,,2
comment,2022-12-11,5,"I once was already failing a Calc class and my parents still demanded I go to the final because “it’s the principle of the thing”, missed Green Day at a club in DC for $30, got like 40%, and transferred majors",District of Columbia,38.91706,-77.00025,first-order administrative division,District of Columbia,,United States,GMU,State,,,,,,17
post,2021-03-28,277,"The officers’ complaint alleges retaliation for reporting a use of excessive force by a GMU police officer against a handcuffed arrestee, who was taken into custody for a non-violent offense on January 28, 2018, at the EagleBank Arena on the Fairfax GMU campus.",Fairfax,38.84622,-77.30637,seat of a second-order administrative division,Virginia,City of Fairfax,United States,GMU,City,,,,,,20
post,2021-03-28,277,"As a result of the plaintiffs’ attempts to have these allegations of excessive force and false police report properly investigated, GMU has removed the plaintiffs from job duties, demoted or transferred them, and even defamed an officer before the Fairfax County Commonwealth’s Attorney, claiming that he was found to be guilty of dishonesty in his role at the department.",Commonwealth,38.07486,-78.48723,populated place,Virginia,Albemarle County,United States,GMU,City,,,,,,1
post,2021-03-28,277,"Due to the impossibility of finding relief through ordinary internal channels, the officers have filed a complaint in the Circuit Court of Fairfax County, through their attorneys at Simms Showers, LLP, in Leesburg, Virginia.",Leesburg,39.11566,-77.5636,seat of a second-order administrative division,Virginia,Loudoun County,United States,GMU,City,,,,,,3
post,2021-03-28,277,"Due to the impossibility of finding relief through ordinary internal channels, the officers have filed a complaint in the Circuit Court of Fairfax County, through their attorneys at Simms Showers, LLP, in Leesburg, Virginia.",Virginia,37.54812,-77.44675,first-order administrative division,Virginia,,United States,GMU,State,,,,,,45
comment,2021-03-28,25,I had to deal with the gmu police back in 2016.,Greenville Downtown Airport,34.85031,-82.3509,airport,South Carolina,Greenville County,United States,GMU,Building,,,,,,11
comment,2021-04-09,1,"And if you think that you've been the victim of an illegal action by GMU, I'm sure there's a good looking attorney somewhere in Leesburg Virginia who may be able to help.",Leesburg,39.11566,-77.5636,seat of a second-order administrative division,Virginia,Loudoun County,United States,GMU,City,,,,,,3
comment,2021-04-09,1,"And if you think that you've been the victim of an illegal action by GMU, I'm sure there's a good looking attorney somewhere in Leesburg Virginia who may be able to help.",Virginia,37.54812,-77.44675,first-order administrative division,Virginia,,United States,GMU,State,,,,,,45
comment,2021-03-28,6,"Despite failing to get relief and despite his punishment being left in place, about 6 months after the conclusion of the matter, the GMU PD gave him notice that he was placed on the ""Brady List"" at Fairfax County PD.",Fairfax County,38.83469,-77.27622,second-order administrative division,Virginia,Fairfax County,United States,GMU,State,,,,,,14
comment,2021-03-28,2,The auditor’s final report showed wide-spread violations of Virginia policy and law among the senior leadership command at the GMU Police Department.,Virginia,37.54812,-77.44675,first-order administrative division,Virginia,,United States,GMU,State,,,,,,45
comment,2021-03-28,2,"Through a hearing before the Office of Employment Dispute Resolution in 2014, it was found that GMU wrongfully failed to promote \[plaintiff 1\] from Sergeant to Lieutenant and wrongfully moved him away from the main GMU campus of Fairfax to the Prince William County satellite campus in retaliation for reporting and participating in the investigator’s 2012 investigation.",Fairfax,38.84622,-77.30637,seat of a second-order administrative division,Virginia,City of Fairfax,United States,GMU,City,,,,,,20
comment,2021-03-28,2,"Through a hearing before the Office of Employment Dispute Resolution in 2014, it was found that GMU wrongfully failed to promote \[plaintiff 1\] from Sergeant to Lieutenant and wrongfully moved him away from the main GMU campus of Fairfax to the Prince William County satellite campus in retaliation for reporting and participating in the investigator’s 2012 investigation.",Prince William County,38.70167,-77.47766,second-order administrative division,Virginia,Prince William County,United States,GMU,State,,,,,,1
comment,2025-10-09,26,"Can't do much as they harass every student trying to make it to class on time near Mason Pond, but it felt different having them walk up and knock on my window while I was eating lunch and trying to enjoy my short break.",Mason Pond,41.64506,-72.80084,lake,Connecticut,Capitol Planning Region,United States,GMU,Natural Feature,,,,,,15
comment,2025-10-10,-2,Liberals would ruin the United States if we would let them and remove God from every aspec of day to day life.,Territories of the United States,35.27766,-102.35403,region,,,United States,GMU,Region,,,,,,4
comment,2025-03-18,15,"I thought we had it bad, but my gf went to Northeastern in Boston and their parking was 2,000 dollars a year with an even lower chance of getting a spot since a ton of it was street parking",Boston,42.35843,-71.05977,seat of a first-order administrative division,Massachusetts,Suffolk County,United States,GMU,City,,,,,,2
comment,2025-03-18,8,"should have got west campus pass, never full",West Campus,34.67943,-82.8396,building(s),South Carolina,Pickens County,United States,GMU,Building,,,,,,5
comment,2025-03-18,2,"dog its like a 15 minute walk

I had west campus all 4 years, never once used the bus",West Campus,34.67943,-82.8396,building(s),South Carolina,Pickens County,United States,GMU,Building,,,,,,5
comment,2024-11-20,74,"Even if GMU doesn’t have a social life (it does) you’re right next to DC, can get on the shuttle for free, and ride the metro in for ten bucks.",Greenville Downtown Airport,34.85031,-82.3509,airport,South Carolina,Greenville County,United States,GMU,Building,,,,,,11
comment,2024-11-20,74,"Even if GMU doesn’t have a social life (it does) you’re right next to DC, can get on the shuttle for free, and ride the metro in for ten bucks.",District of Columbia,38.91706,-77.00025,first-order administrative division,District of Columbia,,United States,GMU,State,,,,,,17
comment,2024-11-20,74,Plus walk right into downtown Fairfax.,Fairfax,38.84622,-77.30637,seat of a second-order administrative division,Virginia,City of Fairfax,United States,GMU,City,,,,,,20
comment,2024-11-20,71,Manassas Campus is expanding also in high-demand science sectors.,Strayer University - Manassas Campus,38.80509,-77.50914,school,Virginia,Prince William County,United States,GMU,Building,,,,,,1
comment,2024-11-21,12,"I'm out of state dude, I came down from Massachusetts!",Massachusetts,42.36565,-71.10832,first-order administrative division,Massachusetts,,United States,GMU,State,,,,,,1
comment,2024-11-22,6,"I’ve lived near George Mason my whole life and even though I go to Georgetown, I can confirm George Mason is a good school.",George Mason University Fairfax Campus,38.83088,-77.30794,school,Virginia,Fairfax County,United States,GMU,Building,,,,,,2
comment,2024-11-22,6,"People don’t realize how good it is until you travel outside of North Virginia and see colleges like University of New Haven, Radford, ODU or even University of Delaware to some extent.",North Virginia Beach,36.90404,-75.99243,populated place,Virginia,City of Virginia Beach,United States,GMU,City,,,,,,1
comment,2024-11-22,3,"It is what you make out of it, and tbh, the best part about Mason is the location.",Mason County,43.95625,-86.42258,second-order administrative division,Michigan,Mason County,United States,GMU,State,,,,,,28
comment,2024-11-24,3,"I had friends at ""party"" schools like WVU and I'm from Charlottesville so I've spent a lot of my life living in UVA's backyard,  and I spent time with friends at other schools in the District proper.",Charlottesville,38.02931,-78.47668,seat of a second-order administrative division,Virginia,City of Charlottesville,United States,GMU,City,,,,,,1
comment,2024-11-24,3,"I had friends at ""party"" schools like WVU and I'm from Charlottesville so I've spent a lot of my life living in UVA's backyard,  and I spent time with friends at other schools in the District proper.",District 1,40.10481,-80.60424,administrative division,West Virginia,Ohio County,United States,GMU,Neighborhood,,,,,,1
comment,2024-11-21,1,They're doing this on purpose btw to drive revenue which is what Richmond told Washington to do so.,Richmond,37.55376,-77.46026,seat of a first-order administrative division,Virginia,City of Richmond,United States,GMU,City,,,,,,6
comment,2024-11-21,1,They're doing this on purpose btw to drive revenue which is what Richmond told Washington to do so.,Washington,47.50012,-120.50147,first-order administrative division,Washington,,United States,GMU,State,,,,,,4
comment,2024-11-20,1,"The bureaucracy in Mason is so bad, you trynna get some simple things done here you will have to talk to 3 different departments until you can finally talk to someone that’s able to help you.",Mason,30.74879,-99.23061,seat of a second-order administrative division,Texas,Mason County,United States,GMU,City,,,,,,3
comment,2024-11-21,5,Exactly I love being near DC,District of Columbia,38.91706,-77.00025,first-order administrative division,District of Columbia,,United States,GMU,State,,,,,,17
comment,2024-11-20,41,"Here you can easily get a summer job, and if you can’t, you can get a job during the school year since all the people living in nova went down to their jmu, uva, tech schools (granted some people don’t work during school).",Nova,39.73176,-77.81944,populated place,Pennsylvania,Franklin County,United States,GMU,City,,,,,,5
comment,2024-11-20,41,"Here you can easily get a summer job, and if you can’t, you can get a job during the school year since all the people living in nova went down to their jmu, uva, tech schools (granted some people don’t work during school).",Jiamusi,46.79711,130.31118,seat of a second-order administrative division,Heilongjiang,Jiamusi Shi,China,GMU,City,,,,,,1
comment,2024-11-20,41,"Here you can easily get a summer job, and if you can’t, you can get a job during the school year since all the people living in nova went down to their jmu, uva, tech schools (granted some people don’t work during school).",Uvalde,29.20968,-99.78617,seat of a second-order administrative division,Texas,Uvalde County,United States,GMU,City,,,,,,1
comment,2020-08-29,6,Lol I did shit like this for indigenous peoples day at gmu and some highways,Gauriyamau,26.75703,81.79366,railroad station,Uttar Pradesh,Ayodhya,India,GMU,Road,,,,,,9
post,2024-12-13,264,"I am a commuter, but Mason became an escape from my life and a vibrant place where I felt like I could totally be myself; amidst the cold winters and the beckoning springs.",Mason,42.5792,-84.44358,populated place,Michigan,Ingham County,United States,GMU,City,,,,,,2
comment,2024-12-13,15,But when I decided to change careers and came to Mason....,Mason County,43.95625,-86.42258,second-order administrative division,Michigan,Mason County,United States,GMU,State,,,,,,28
comment,2022-04-21,119,Every currently enrolled GMU student in the U.S. got this email.,United States,39.76,-98.5,independent political entity,,,United States,GMU,Country,,,,,,41
comment,2022-04-22,8,"oh my god this school is in virginia, why am i here….WELL HI EVERYONE mcmaster is in ontario and we say hi to you all :))))",Virginia,44.31639,-79.28444,populated place,Ontario,York,Canada,GMU,City,,,,,,1
comment,2022-04-22,8,"oh my god this school is in virginia, why am i here….WELL HI EVERYONE mcmaster is in ontario and we say hi to you all :))))",Ontario,49.25014,-84.49983,first-order administrative division,Ontario,,Canada,GMU,State,,,,,,1
comment,2025-11-24,12,"Its great to know otherwise that these people share the same classes as us, and we never know people for their true-selves—Just like the werewolf killer a couple years ago, or the student last year who had plans to commit a terror attack in New York.",New York,43.00035,-75.4999,first-order administrative division,New York,,United States,GMU,State,,,,,,1
post,2023-10-05,261,"George Mason’s Observatory I don’t see too much posted here about our Observatory that’s on campus, wanted to make a quick post about it!",Observatory,40.59529,-98.36923,,Nebraska,Adams County,United States,GMU,,,,,,,6
comment,2023-10-05,56,Biggest in Virginia?,Virginia,37.54812,-77.44675,first-order administrative division,Virginia,,United States,GMU,State,,,,,,45
comment,2023-10-06,2,"I’d pass by it every day when I lived at Potomac Heights or was going to the Engineering building, and everytime I said I’ll go in this week.",Potomac Heights,38.92761,-77.10776,populated place,District of Columbia,,United States,GMU,City,,,,,,1
comment,2023-10-05,15,Our smaller astronomers really enjoy seeing Saturns rings and Jupiter’s moons on clear nights.,Jupiter,-20.91598,55.57914,populated place,,,Reunion,GMU,City,,,,,,1
comment,2023-10-05,6,I’ve noticed a lot of Mason students don’t even know we have an Observatory - I’ve heard people assume that it was a grain silo or water tower.,Observatory,40.59529,-98.36923,,Nebraska,Adams County,United States,GMU,,,,,,,6
comment,2023-10-06,6,Our greatest enemy at the Observatory is Enterprise Hall lol.,Observatory,40.59529,-98.36923,,Nebraska,Adams County,United States,GMU,,,,,,,6
comment,2023-10-06,6,Our greatest enemy at the Observatory is Enterprise Hall lol.,Enterprise Hall,38.82889,-77.30611,building(s),Virginia,City of Fairfax,United States,GMU,Building,,,,,,1
comment,2023-10-05,12,"To attend, head to the lobby of Research Hall, the building connected to the Observatory.",Harvey Monroe Hall Research Natural Area,37.9602,-119.29849,area,California,Mono County,United States,GMU,Building,,,,,,2
comment,2023-10-05,12,"To attend, head to the lobby of Research Hall, the building connected to the Observatory.",Observatory,40.59529,-98.36923,,Nebraska,Adams County,United States,GMU,,,,,,,6
comment,2023-10-05,4,Come by Research Hall at 7:15pm!,Harvey Monroe Hall Research Natural Area,37.9602,-119.29849,area,California,Mono County,United States,GMU,Building,,,,,,2
comment,2023-10-05,4,"Yep, during other night of the week, the Observatory is used for Research and Astrophotography Projects.",Observatory,40.59529,-98.36923,,Nebraska,Adams County,United States,GMU,,,,,,,6
comment,2024-10-07,12,Most of the foxes in Fairfax are pretty chill around people.,Fairfax,38.84622,-77.30637,seat of a second-order administrative division,Virginia,City of Fairfax,United States,GMU,City,,,,,,20
comment,2022-08-22,52,As an ibs sufferer 5th floor fenwick is a peak shitting location.,Fenwick,53.63868,-1.0976,seat of a third-order administrative division,England,Doncaster,United Kingdom,GMU,City,,,,,,13
comment,2022-08-22,14,Krug Hall bathrooms are so nasty man.,Krug Hall,38.8325,-77.30889,building(s),Virginia,City of Fairfax,United States,GMU,Building,,,,,,1
comment,2022-08-22,11,There is a one toilet bathroom on the roof of planetary near the telescope.,Mannheim Planetary,49.47728,8.49287,building(s),Baden-Wurttemberg,Karlsruhe Region,Germany,GMU,Building,,,,,,5
comment,2022-08-22,7,"Aquia building is the best, always empty bathrooms and there’s a microwave",Aquia,-10.0745,-77.14475,seat of a third-order administrative division,Ancash,Provincia de Bolognesi,Peru,GMU,City,,,,,,2
comment,2022-08-22,5,Personally I would rate Horizon Hall as yellow.,Horizon City Town Hall,31.68359,-106.20183,building(s),Texas,El Paso County,United States,GMU,Building,,,,,,8
comment,2022-08-23,5,Remember I almost shit myself on the way from Johnson Center to West Campus at 10:30pm after my last class all the facility bathrooms were closed the softball and baseball bathrooms were also locked I had to shit in the woods off of west campus drive,Johnson Center,42.2703,-89.0176,building(s),Illinois,Winnebago County,United States,GMU,Building,,,,,,1
comment,2022-08-23,5,Remember I almost shit myself on the way from Johnson Center to West Campus at 10:30pm after my last class all the facility bathrooms were closed the softball and baseball bathrooms were also locked I had to shit in the woods off of west campus drive,West Campus,34.67943,-82.8396,building(s),South Carolina,Pickens County,United States,GMU,Building,,,,,,5
comment,2022-08-23,3,I shat at building 44 near rogers hall and it was exquisite,Rogers Hall,40.67566,-74.23376,building(s),New Jersey,Union County,United States,GMU,Building,,,,,,1
comment,2022-08-22,2,Why is Hanover hall the only dorm with green rating?,Hanover,41.6426,-72.06535,populated place,Connecticut,Southeastern Connecticut Planning Region,United States,GMU,City,,,,,,3
comment,2022-08-22,2,Carow Hall can be put in the yellow category.,Carow Hall,38.83139,-77.30111,building(s),Virginia,City of Fairfax,United States,GMU,Building,,,,,,1
comment,2022-08-23,16,"I'm gonna be so mad if someone's in my secret Fenwick bathroom next time, I swear.",Fenwick,41.27093,-72.35369,populated place,Connecticut,Lower Connecticut River Valley Planning Region,United States,GMU,City,,,,,,7
comment,2022-08-22,11,Hanover is not truly a housing space.,Hanover,41.6426,-72.06535,populated place,Connecticut,Southeastern Connecticut Planning Region,United States,GMU,City,,,,,,3
comment,2022-08-22,4,Hanover is not technically a dorm building.,Hanover,41.6426,-72.06535,populated place,Connecticut,Southeastern Connecticut Planning Region,United States,GMU,City,,,,,,3
comment,2022-08-23,2,Well regardless I thiink the top floor study room in horizon has a small bathroom.,Horizon,39.68575,20.88265,hotel,Epirus,Nomós Ioannínon,Greece,GMU,Building,,,,,,2
comment,2020-03-13,4,"If VT and VCU closed when all of the cases in VA are centered around NOVA, then GMU will close too.",Nova,39.73176,-77.81944,populated place,Pennsylvania,Franklin County,United States,GMU,City,,,,,,5
comment,2020-06-20,10,Earth is healing,Earth,0.0,0.0,area,,,,GMU,Building,,,,,,4
comment,2020-06-21,1,They're now delivering food to Atlantis,Atlantis,44.72142,13.23705,province,,,,GMU,State,,,,,,1
comment,2023-10-17,16,Not as safe as [Legacy Park in Ashburn](https://maps.app.goo.gl/QyDmPnbby64j4myq8),Legacy Park,27.9209,-82.3468,populated place,Florida,Hillsborough County,United States,GMU,City,,,,,,1
comment,2020-05-14,24,", because if eagle bank arena....",Eagle Bank,-30.25118,139.91602,stream bank,South Australia,,Australia,GMU,Natural Feature,,,,,,8
comment,2022-02-04,1,Driving back from a shopping trip in Fair Lakes wasn't fun!,Hyatt Fair Lakes,38.8588,-77.3867,hotel,Virginia,,United States,GMU,Building,,,,,,2
comment,2025-02-11,24,it’s like a Virginian on the shore of the Potomac river looking out at Maryland,South Fork South Branch Potomac River,39.06761,-78.97308,stream,West Virginia,Hardy County,United States,GMU,Natural Feature,,,,,,1
comment,2025-02-11,24,it’s like a Virginian on the shore of the Potomac river looking out at Maryland,Maryland,39.00039,-76.74997,first-order administrative division,Maryland,,United States,GMU,State,,,,,,8
comment,2025-02-12,3,"(points to MD) and what about that part over there

you must never go there,",Maryland,39.00039,-76.74997,first-order administrative division,Maryland,,United States,GMU,State,,,,,,8
comment,2024-10-28,10,"Saw one of them chilling near the JC a week or two ago, with a crowd filming.",Farrell Building,45.58569,-122.40498,building(s),Washington,Clark County,United States,GMU,Building,,,,,,1
comment,2025-10-07,71,They've been doing this crap since I went to Mason way back in 2011.,Mason County,43.95625,-86.42258,second-order administrative division,Michigan,Mason County,United States,GMU,State,,,,,,28
comment,2025-10-07,3,Ya I saw it when I was going to southside made me loose my appetite.,Southside,39.78121,-76.39468,populated place,Pennsylvania,York County,United States,GMU,City,,,,,,27
comment,2025-10-07,2,There used to be a bus covered in this stuff that drove all over in DC.,District of Columbia,38.91706,-77.00025,first-order administrative division,District of Columbia,,United States,GMU,State,,,,,,17
comment,2025-10-07,1,I saw them setting up in front of the Dunkies and thought it was for the construction at Fenwick :(,Fenwick,53.63868,-1.0976,seat of a third-order administrative division,England,Doncaster,United Kingdom,GMU,City,,,,,,13
comment,2025-10-07,2,Right in front of Southside,Southside,39.78121,-76.39468,populated place,Pennsylvania,York County,United States,GMU,City,,,,,,27
post,2023-10-08,240,"It's probably rare for them to be graced with the presence of a student at the top cs/engineering school in the U.S., the MIT of Fairfax County.",United States,39.76,-98.5,independent political entity,,,United States,GMU,Country,,,,,,41
post,2023-10-08,240,"It's probably rare for them to be graced with the presence of a student at the top cs/engineering school in the U.S., the MIT of Fairfax County.",Fairfax County,38.83469,-77.27622,second-order administrative division,Virginia,Fairfax County,United States,GMU,State,,,,,,14
comment,2023-10-08,115,"[gif](giphy|12msOFU8oL1eww)

The MIT of Fairfax county LOL",Fairfax County,38.83469,-77.27622,second-order administrative division,Virginia,Fairfax County,United States,GMU,State,,,,,,14
comment,2023-10-12,1,"Can’t even say the MIT of Fairfax County cause if you ever move to Silicon Valley once you graduate and you tell people you’re from Fairfax, VA they’ll just assume you went to Thomas Jefferson .",Fairfax County,38.83469,-77.27622,second-order administrative division,Virginia,Fairfax County,United States,GMU,State,,,,,,14
comment,2023-10-12,1,"Can’t even say the MIT of Fairfax County cause if you ever move to Silicon Valley once you graduate and you tell people you’re from Fairfax, VA they’ll just assume you went to Thomas Jefferson .",Santa Clara Valley,37.24883,-121.83995,valley,California,Santa Clara County,United States,GMU,Natural Feature,,,,,,1
comment,2023-10-12,1,"Can’t even say the MIT of Fairfax County cause if you ever move to Silicon Valley once you graduate and you tell people you’re from Fairfax, VA they’ll just assume you went to Thomas Jefferson .",Fairfax,38.84622,-77.30637,seat of a second-order administrative division,Virginia,City of Fairfax,United States,GMU,City,,,,,,20
comment,2023-10-12,1,"Can’t even say the MIT of Fairfax County cause if you ever move to Silicon Valley once you graduate and you tell people you’re from Fairfax, VA they’ll just assume you went to Thomas Jefferson .",Virginia,37.54812,-77.44675,first-order administrative division,Virginia,,United States,GMU,State,,,,,,45
comment,2024-08-30,2,I wouldn’t expect them to have morals at the Raytheon pipeline,Raytheon Heliport,42.43065,-71.252,heliport,Massachusetts,Middlesex County,United States,GMU,Building,,,,,,1
comment,2021-02-03,1,It's between President's Park and the Hub.,President's Park,39.01111,-84.57306,park,Kentucky,Kenton County,United States,GMU,Neighborhood,,,,,,1
comment,2021-02-03,1,It's between President's Park and the Hub.,Hub,36.40217,-119.80903,populated place,California,Kings County,United States,GMU,City,,,,,,2
comment,2020-11-30,-5,GMU is one of the cheapest and best value colleges in Virginia and the USA can’t really complain,Virginia,37.54812,-77.44675,first-order administrative division,Virginia,,United States,GMU,State,,,,,,45
comment,2020-11-30,-5,GMU is one of the cheapest and best value colleges in Virginia and the USA can’t really complain,United States,39.76,-98.5,independent political entity,,,United States,GMU,Country,,,,,,41
comment,2020-12-01,2,"I think about transfering out too, but I don't really know any other schools in Virginia.",Virginia,37.54812,-77.44675,first-order administrative division,Virginia,,United States,GMU,State,,,,,,45
comment,2026-02-11,7,you mean north?,North,22.49471,114.13812,first-order administrative division,North District,,Hong Kong,GMU,State,,,,,,1
comment,2020-05-29,2,I graduated in 2018 and I’ll still talk about Robinson and probably refer to the new building as Robinson,Robinson,39.00532,-87.73919,seat of a second-order administrative division,Illinois,Crawford County,United States,GMU,City,,,,,,2
comment,2020-05-29,2,I graduated in 2018 and I’ll still talk about Robinson and probably refer to the new building as Robinson,Robinson,39.00532,-87.73919,seat of a second-order administrative division,Illinois,Crawford County,United States,GMU,City,,,,,,2
post,2026-03-15,236,"Yo guys, I heard it is snowing in Antarctica and it's really cold.",Antarctica,-78.15856,16.40626,continent,,,,GMU,Country,,,,,,1
comment,2020-07-02,-9,"Why is it that you hate how the American government has handled this pandemic, yet you blindly trust them that masks work, when it runs contrary to the common consensus in Europe?",Europe,48.69096,9.14062,continent,,,,GMU,Country,,,,,,2
comment,2024-04-27,3,I know you can drown in a bathtub but you'd have to really screw up to drown in the Mason pond.,Mason County,43.95625,-86.42258,second-order administrative division,Michigan,Mason County,United States,GMU,State,,,,,,28
comment,2024-04-27,3,Hell I had to take a behavior class because I took my mask down to sip water in the kitchen room of Taylor hall.,Taylor Hall,41.68639,-73.89778,building(s),New York,Dutchess County,United States,GMU,Building,,,,,,1
post,2026-03-05,234,If you have worked with a personal injury attorney in VA that you liked please share their info.,Virginia,37.54812,-77.44675,first-order administrative division,Virginia,,United States,GMU,State,,,,,,45
comment,2026-03-05,47,Damn bro I was walking next to planetary almost right when that happened but didn’t see it hope you get compensated or something though,Mannheim Planetary,49.47728,8.49287,building(s),Baden-Wurttemberg,Karlsruhe Region,Germany,GMU,Building,,,,,,5
comment,2023-01-31,7,"Bro you’re in cyse, don’t you know how email works ?",Squamish Airport,49.78279,-123.16185,airport,British Columbia,Squamish-Lillooet Regional District,Canada,GMU,Building,,,,,,1
comment,2020-08-29,57,"Somebody please remind me why the heck GMU being the largest university in Virginia contracted with a new and shady company that popped out of nowhere for an emergency that involves the life of students, faculty and a good chunk of Fairfax county",Virginia,37.54812,-77.44675,first-order administrative division,Virginia,,United States,GMU,State,,,,,,45
comment,2020-08-29,57,"Somebody please remind me why the heck GMU being the largest university in Virginia contracted with a new and shady company that popped out of nowhere for an emergency that involves the life of students, faculty and a good chunk of Fairfax county",Fairfax County,38.83469,-77.27622,second-order administrative division,Virginia,Fairfax County,United States,GMU,State,,,,,,14
comment,2020-08-29,18,Now I wonder why three of the biggest and most important universities of Virginia did that decision.,Virginia,37.54812,-77.44675,first-order administrative division,Virginia,,United States,GMU,State,,,,,,45
comment,2020-08-31,1,"The registration information for Kallaco resolves to a residential neighborhood in New Orleans, it is also designated as the Principle Business Office.",New Orleans,29.95465,-90.07507,seat of a second-order administrative division,Louisiana,Orleans Parish,United States,GMU,City,,,,,,2
comment,2020-08-31,1,"The Registration Domicile Address resolves to 1209 Orange Street, Wilmington, Delaware.",Wilmington,39.74595,-75.54659,seat of a second-order administrative division,Delaware,New Castle County,United States,GMU,City,,,,,,1
comment,2020-08-31,1,"The Registration Domicile Address resolves to 1209 Orange Street, Wilmington, Delaware.",Delaware,39.00039,-75.49992,first-order administrative division,Delaware,,United States,GMU,State,,,,,,4
comment,2020-08-31,1,"This is the the same address as the Corporation Trust Company and that address has thousands of companies registered to the same address, due to Delaware's laws regarding incorporation and state taxes.",Delaware,39.00039,-75.49992,first-order administrative division,Delaware,,United States,GMU,State,,,,,,4
comment,2020-08-31,2,Some states (ahem LA and DE) also make it difficult by not showing members of a company.,Los Angeles,34.05223,-118.24368,seat of a second-order administrative division,California,Los Angeles County,United States,GMU,City,,,,,,2
comment,2020-08-31,2,Some states (ahem LA and DE) also make it difficult by not showing members of a company.,Delaware,39.00039,-75.49992,first-order administrative division,Delaware,,United States,GMU,State,,,,,,4
comment,2020-08-31,2,"One case is my company: I’m the registered agent and the registered office is my house, but the business office is another member’s house, meanwhile (bc it’s Texas) all members are listed publicly.",Texas,31.25044,-99.25061,first-order administrative division,Texas,,United States,GMU,State,,,,,,1
comment,2020-08-31,2,Kallaco is also violating Virginia law.,Virginia,37.54812,-77.44675,first-order administrative division,Virginia,,United States,GMU,State,,,,,,45
comment,2020-08-31,2,"Their HIPPA privacy office is in Glen Allen, which is considered transacting business in the state, and the law requires registration with the VA SCC before transacting business - but they’re not registered.",Glen Allen,37.66598,-77.50637,populated place,Virginia,Henrico County,United States,GMU,City,,,,,,1
comment,2020-03-20,41,I have to stay on campus for the remainder of the semester so I’m practically in Potomac by myself.,Potomac,40.15285,-80.52924,populated place,West Virginia,Ohio County,United States,GMU,City,,,,,,2
post,2024-11-15,230,bring back the fountain in the jc!,JC Tank,33.81574,-109.14594,water tank,Arizona,Apache County,United States,GMU,Building,,,,,,1
comment,2024-11-22,1,that could've been a cool tradition at mason,Mason County,43.95625,-86.42258,second-order administrative division,Michigan,Mason County,United States,GMU,State,,,,,,28
comment,2024-11-16,11,I remember the fountain back when the Johnson Center was new.,Johnson Center for The Arts,39.47806,-86.0475,building(s),Indiana,Johnson County,United States,GMU,Building,,,,,,6
comment,2024-11-17,3,"The Johnson Center was dedicated in 96, which tracks with my recollection.",Johnson Center for The Arts,39.47806,-86.0475,building(s),Indiana,Johnson County,United States,GMU,Building,,,,,,6
comment,2025-12-07,91,"Initially it was reported that there was stabbing and cars fleeing to George Mason, but later a witness reported that the victim was pushed into a glass door and the glass cut him.",George Mason Statue,38.83056,-77.30833,park,Virginia,City of Fairfax,United States,GMU,Neighborhood,,,,,,1
comment,2025-12-07,91,This happened on the 3rd floor in the Mains at around 2AM.,Mains,31.30674,76.89512,populated place,Himachal Pradesh,Bilāspur,India,GMU,City,,,,,,1
comment,2025-12-10,2,Mason cops wet dream.,Mason County,43.95625,-86.42258,second-order administrative division,Michigan,Mason County,United States,GMU,State,,,,,,28
comment,2024-11-13,13,Worse than East Building and David King Hall?,East Building,38.83278,-77.30861,building(s),Virginia,City of Fairfax,United States,GMU,Building,,,,,,1
comment,2024-11-13,13,Worse than East Building and David King Hall?,David King Hall,38.83056,-77.30694,building(s),Virginia,City of Fairfax,United States,GMU,Building,,,,,,1
comment,2025-03-20,8,"see you at skyline man, keep your chin up",Skyline,45.36327,-75.72732,populated place,Ontario,Ottawa,Canada,GMU,City,,,,,,1
comment,2025-10-03,-17,Tyler Cowan is a respected member of the GMU faculty and is a responsible contributing member of the Fairfax community.,Fairfax,38.84622,-77.30637,seat of a second-order administrative division,Virginia,City of Fairfax,United States,GMU,City,,,,,,20
comment,2025-10-03,15,Your reply reads like a cookie cutter defense from the Vatican.,State of the Vatican City,41.90225,12.4533,independent political entity,,,Vatican,GMU,Country,,,,,,1
comment,2026-04-22,2,I usually expect this from Southside lol,Southside,39.78121,-76.39468,populated place,Pennsylvania,York County,United States,GMU,City,,,,,,27
post,2022-09-19,225,Found this little guy swimming into mason pond,Mason Pond,41.64506,-72.80084,lake,Connecticut,Capitol Planning Region,United States,GMU,Natural Feature,,,,,,15
comment,2022-09-19,16,Such a rare site to see in mason,Mason,46.05008,-80.48299,area,Ontario,,Canada,GMU,Building,,,,,,1
comment,2022-09-19,6,A few years back I once saw a turtle or a tortoise swimming around by the bridge in the Mason pond area.,Masonville,45.91274,-86.98736,populated place,Michigan,Delta County,United States,GMU,City,,,,,,3
comment,2020-12-01,3,For off campus students I’m sure even if you’re all the way in Delaware they want you to do it.,Delaware,39.00039,-75.49992,first-order administrative division,Delaware,,United States,GMU,State,,,,,,4
comment,2025-02-04,133,Once went to southside and got a turkey melt… they forgot to take the plastic off the cheese…,Southside,39.78121,-76.39468,populated place,Pennsylvania,York County,United States,GMU,City,,,,,,27
comment,2025-02-04,24,I went to Southside once... and they forgot to add the sauce to the pizza...,Southside,39.78121,-76.39468,populated place,Pennsylvania,York County,United States,GMU,City,,,,,,27
comment,2025-02-04,2,I go to Southside occasionally when I’m feeling picky and just want random stuff on my plate (or a whole lot of cereal) but I don’t find it worth it for the meal plans.,Southside,39.78121,-76.39468,populated place,Pennsylvania,York County,United States,GMU,City,,,,,,27
comment,2025-02-05,1,southside has given me food poisoning a couple times too!,Southside,39.78121,-76.39468,populated place,Pennsylvania,York County,United States,GMU,City,,,,,,27
comment,2025-02-06,1,"I will tell you, they're still not like... Great all the time, but ikes on its worst days is as good or better than Southside on its best days.",Southside,39.78121,-76.39468,populated place,Pennsylvania,York County,United States,GMU,City,,,,,,27
comment,2025-02-06,1,Southside being central is so much more convenient.,Southside,39.78121,-76.39468,populated place,Pennsylvania,York County,United States,GMU,City,,,,,,27
comment,2025-02-06,1,Average southside meal tbh globe neg diffs (though you have to go on an expedition to get there),Southside,39.78121,-76.39468,populated place,Pennsylvania,York County,United States,GMU,City,,,,,,27
comment,2024-05-02,9,It's northern Virginia.,Virginia,37.54812,-77.44675,first-order administrative division,Virginia,,United States,GMU,State,,,,,,45
comment,2020-02-09,3,I lived in NoVA from 1993 until last year.,Nova,64.48632,11.0805,valley,Trøndelag,Namsos,Norway,GMU,Natural Feature,,,,,,4
post,2025-02-03,220,I was watching this YouTube Short and realized the Johnson Center was the background,Johnson Center for The Arts,39.47806,-86.0475,building(s),Indiana,Johnson County,United States,GMU,Building,,,,,,6
comment,2025-02-03,19,"What was the video about, Norway?",Kingdom of Norway,62.0,10.0,independent political entity,,,Norway,GMU,Country,,,,,,1
post,2019-01-23,219,Mason student attempts to get to class amongst campus construction (2019 colorized),Mason County,43.95625,-86.42258,second-order administrative division,Michigan,Mason County,United States,GMU,State,,,,,,28
post,2018-11-10,220,"So, on Wednesday on my way to Fairfax for my 7:10 class, I checked google maps to see how bad traffic is and if I need to use a different road to get into campus.",Fairfax,38.84622,-77.30637,seat of a second-order administrative division,Virginia,City of Fairfax,United States,GMU,City,,,,,,20
post,2018-11-10,220,"The campus being at a standstill was a given, but all the roads outside of mason were also backed up, some of them for about a mile (worst I had seen).",Mason County,43.95625,-86.42258,second-order administrative division,Michigan,Mason County,United States,GMU,State,,,,,,28
post,2018-11-10,220,"&#x200B;

>A power line was cut accidentally due to construction calm down 

  

>i dont even have class on Fairfax but i agree with you bud.",Fairfax,38.84622,-77.30637,seat of a second-order administrative division,Virginia,City of Fairfax,United States,GMU,City,,,,,,20
post,2018-11-10,220,"It wasn’t our fault but now we have to do extra work, because if eagle bank arena….",Eagle Bank,-30.25118,139.91602,stream bank,South Australia,,Australia,GMU,Natural Feature,,,,,,8
post,2018-11-10,220,>if eagle bank arena what?,Eagle Bank,-30.25118,139.91602,stream bank,South Australia,,Australia,GMU,Natural Feature,,,,,,8
post,2018-11-10,220,"It wasn’t our fault but now we have to do extra work, because if eagle bank arena….",Eagle Bank,-30.25118,139.91602,stream bank,South Australia,,Australia,GMU,Natural Feature,,,,,,8
comment,2025-05-16,12,At least some other countries get cool things like swords when you get a PhD in Sweden.,Kingdom of Sweden,62.0,15.0,independent political entity,,,Sweden,GMU,Country,,,,,,1
post,2025-01-28,219,"I saw some people standing in the frozen over Mason pond (Please do not do this, you could fall into freezing water)",Masonville,45.91274,-86.98736,populated place,Michigan,Delta County,United States,GMU,City,,,,,,3
comment,2025-01-28,40,There's been more than a dozen hospitalizations in Fairfax County within the last month for similar results from standing on lakes that appear to be frozen over.,Fairfax County,38.83469,-77.27622,second-order administrative division,Virginia,Fairfax County,United States,GMU,State,,,,,,14
comment,2025-01-28,40,"While the Mason pond is rather shallow, it can still be fairly dangerous.",Måsön,58.86667,16.75,island,Södermanland,,Sweden,GMU,Natural Feature,,,,,,1
comment,2023-11-15,-3,"And as someone who works at a business in the Johnson Center, maybe it was a *little* disruptive, but when there is a genocide happening, people have the right to be disruptive?",Johnson Center for The Arts,39.47806,-86.0475,building(s),Indiana,Johnson County,United States,GMU,Building,,,,,,6
comment,2023-11-16,4,He makes more than the President of the United States!,Territories of the United States,35.27766,-102.35403,region,,,United States,GMU,Region,,,,,,4
comment,2023-10-07,10,I graduated with a BA in Human Development and Family Science in spring of 2023 and now I work an Child Protective Investigator for the state of Florida making 50k a year starting,Florida,28.75054,-82.5001,first-order administrative division,Florida,,United States,GMU,State,,,,,,1
comment,2021-02-11,19,As someone who just transferred home from a school in ohio i can say unequivocally that northern va is not cold.,Ohio,40.25034,-83.00018,first-order administrative division,Ohio,,United States,GMU,State,,,,,,4
comment,2021-02-11,5,"I have never stayed in Ohio long enough (only drove through and it was cold af), but I don't know if it gets as humid there.",Ohio,40.25034,-83.00018,first-order administrative division,Ohio,,United States,GMU,State,,,,,,4
comment,2021-02-11,6,"It's not that cold, but I've noticed when I've driven from Richmond up to DC that it's consistently colder in DC than it is in Richmond.",Richmond,37.55376,-77.46026,seat of a first-order administrative division,Virginia,City of Richmond,United States,GMU,City,,,,,,6
comment,2021-02-11,6,"It's not that cold, but I've noticed when I've driven from Richmond up to DC that it's consistently colder in DC than it is in Richmond.",District of Columbia,38.91706,-77.00025,first-order administrative division,District of Columbia,,United States,GMU,State,,,,,,17
comment,2021-02-11,6,"It's not that cold, but I've noticed when I've driven from Richmond up to DC that it's consistently colder in DC than it is in Richmond.",District of Columbia,38.91706,-77.00025,first-order administrative division,District of Columbia,,United States,GMU,State,,,,,,17
comment,2021-02-11,6,"It's not that cold, but I've noticed when I've driven from Richmond up to DC that it's consistently colder in DC than it is in Richmond.",Richmond,37.55376,-77.46026,seat of a first-order administrative division,Virginia,City of Richmond,United States,GMU,City,,,,,,6
comment,2024-11-23,2,Man I’m so glad I took 207 back when we were still using PHP so I wouldn’t have to go through all this bs,Interchange 207,41.68949,-83.53466,road junction,Ohio,Lucas County,United States,GMU,Road,,,,,,1
comment,2022-01-30,3,I see it all the time in the jc building,Jc Contemporary,41.79959,12.47982,hotel,Lazio,Città metropolitana di Roma Capitale,Italy,GMU,Building,,,,,,4
comment,2019-09-11,4,I think educators as a whole are fucked simply because in the USA they are underpaid.,United States,39.76,-98.5,independent political entity,,,United States,GMU,Country,,,,,,41
comment,2019-09-11,4,"Fairfax county pays  their teachers well too, at about $60k/yr... but you need a masters degree.",Fairfax County,38.83469,-77.27622,second-order administrative division,Virginia,Fairfax County,United States,GMU,State,,,,,,14
comment,2019-05-31,7,"I definitely agree that we need an unsubscribe option, because I will never have to, or have any desire to, go to any campuses besides the Fairfax one.",Fairfax,38.84622,-77.30637,seat of a second-order administrative division,Virginia,City of Fairfax,United States,GMU,City,,,,,,20
comment,2019-05-31,5,"RAVE Guardian: Hey, the power's out in Arlington.",Arlington,32.73569,-97.10807,populated place,Texas,Tarrant County,United States,GMU,City,,,,,,12
comment,2019-05-31,5,"Personal Email: Hey, the power's out in Arlington.",Arlington,32.73569,-97.10807,populated place,Texas,Tarrant County,United States,GMU,City,,,,,,12
comment,2019-05-31,5,"Mason Email: Hey, the power's out in Arlington.",Arlington,32.73569,-97.10807,populated place,Texas,Tarrant County,United States,GMU,City,,,,,,12
comment,2019-05-31,5,"SMS: Hey, the power's out in Arlington.",Arlington,32.73569,-97.10807,populated place,Texas,Tarrant County,United States,GMU,City,,,,,,12
comment,2019-05-31,5,"Mobile Mason: Hey, the power's out in Arlington.",Arlington,32.73569,-97.10807,populated place,Texas,Tarrant County,United States,GMU,City,,,,,,12
comment,2019-05-31,5,"RAVE Guardian: Hey, the power's back on in Arlington.",Arlington,32.73569,-97.10807,populated place,Texas,Tarrant County,United States,GMU,City,,,,,,12
comment,2019-05-31,5,"Mason Email: Hey, the power's back on in Arlington.",Arlington,32.73569,-97.10807,populated place,Texas,Tarrant County,United States,GMU,City,,,,,,12
comment,2019-05-31,5,"Personal Email: Hey, the power's back on in Arlington.",Arlington,32.73569,-97.10807,populated place,Texas,Tarrant County,United States,GMU,City,,,,,,12
comment,2019-05-31,5,"SMS: Hey, the power's back on in Arlington.",Arlington,32.73569,-97.10807,populated place,Texas,Tarrant County,United States,GMU,City,,,,,,12
comment,2019-05-31,5,"Mobile Mason: Hey, the power's back on in Arlington.",Arlington,32.73569,-97.10807,populated place,Texas,Tarrant County,United States,GMU,City,,,,,,12
comment,2019-05-31,5,"just have an online page where people can have settings for masonalert, checkboxes to enable/disable alerts for the fairfax, prince william, and arlington campuses so we don't have to receive all three if we only go to one or two",Prince William,45.91681,-67.04889,populated place,New Brunswick,York County,Canada,GMU,City,,,,,,1
comment,2019-05-31,5,"just have an online page where people can have settings for masonalert, checkboxes to enable/disable alerts for the fairfax, prince william, and arlington campuses so we don't have to receive all three if we only go to one or two",Arlington,40.4259,-79.9745,section of populated place,Pennsylvania,Allegheny County,United States,GMU,Neighborhood,,,,,,2
comment,2019-02-25,2,I nearly got blown over on my way to Peterson today.,West Tarentum,40.59646,-79.77033,populated place,Pennsylvania,Allegheny County,United States,GMU,City,,,,,,1
comment,2019-02-22,3,same thing happened to me (last semester i think) when someone posted a video recording of some guy walking barefoot in jc.,Jc Contemporary,41.79959,12.47982,hotel,Lazio,Città metropolitana di Roma Capitale,Italy,GMU,Building,,,,,,4
comment,2025-09-16,7,"Yesterday, I got on the West Campus shuttle and there were two guys that probably bathed in cologne rather than showered.",West Campus,34.67943,-82.8396,building(s),South Carolina,Pickens County,United States,GMU,Building,,,,,,5
comment,2025-09-20,1,"At Old Dominion is the same, most of the students smell like dirty ass, disgusting.",Virginia,37.54812,-77.44675,first-order administrative division,Virginia,,United States,GMU,State,,,,,,45
comment,2021-03-01,6,It should be all done by the 2022 I believe with the rest of Horizon Hall being built.,Horizon City Town Hall,31.68359,-106.20183,building(s),Texas,El Paso County,United States,GMU,Building,,,,,,8
comment,2024-09-24,22,he even brought it to southside  memories,Southside,39.78121,-76.39468,populated place,Pennsylvania,York County,United States,GMU,City,,,,,,27
comment,2021-01-16,26,"So, there's a big ass shuttle with a big ass gmu logo on it driving around nova?",Nova,65.65053,12.65206,point,Nordland,Vevelstad,Norway,GMU,Natural Feature,,,,,,4
comment,2019-09-21,-14,"Like who cares if it's GPS tracked, it's at the bottom of Mason pond",Mason Pond,41.64506,-72.80084,lake,Connecticut,Capitol Planning Region,United States,GMU,Natural Feature,,,,,,15
comment,2019-09-20,7,I thought all the buildings in GMU would be handicap accessible,Greenville Downtown Airport,34.85031,-82.3509,airport,South Carolina,Greenville County,United States,GMU,Building,,,,,,11
comment,2022-03-04,2,Must be from Miami,Miami,25.77427,-80.19366,seat of a second-order administrative division,Florida,Miami-Dade County,United States,GMU,City,,,,,,2
comment,2022-03-04,1,Gmu parking still gives me ptsd,Greenville Downtown Airport,34.85031,-82.3509,airport,South Carolina,Greenville County,United States,GMU,Building,,,,,,11
comment,2019-02-27,3,I saw Chow Hall be shut down and the opening of South Side.,South Side,41.74855,-87.64417,region,Illinois,Cook County,United States,GMU,Region,,,,,,2
comment,2019-02-27,3,"During finals we would go to South Side, get a booth, and study and eat for hours.",South Side,41.74855,-87.64417,region,Illinois,Cook County,United States,GMU,Region,,,,,,2
comment,2019-02-26,9,"There's Robinson, the path from Skyline to the JC, the area near Mason/Buchanan, and the area near the theater building.",Robinson Crossroads,35.94925,-84.15881,populated place,Tennessee,Knox County,United States,GMU,City,,,,,,1
comment,2019-02-26,9,"There's Robinson, the path from Skyline to the JC, the area near Mason/Buchanan, and the area near the theater building.",Skyline,44.14219,-94.03079,populated place,Minnesota,Blue Earth County,United States,GMU,City,,,,,,1
comment,2019-02-26,9,"There's Robinson, the path from Skyline to the JC, the area near Mason/Buchanan, and the area near the theater building.",Hagik Junction,37.43678,126.65198,intersection,Incheon,Michuhol,South Korea,GMU,Road,,,,,,3
comment,2019-02-26,8,"I graduated 2015, but I remember they were starting to force on campus students to buy unlimited plans for Southside/the other buffet place near presidents park.",Southside,39.78121,-76.39468,populated place,Pennsylvania,York County,United States,GMU,City,,,,,,27
comment,2019-02-26,8,"I graduated 2015, but I remember they were starting to force on campus students to buy unlimited plans for Southside/the other buffet place near presidents park.",Presidents Park,38.89562,-77.03651,park,District of Columbia,,United States,GMU,Neighborhood,,,,,,3
comment,2019-02-27,2,"The area around Buchanan was supposed to be down earlier but they ran into problems with subterranean shit, I think",Buchanan,46.00012,-77.39948,area,Ontario,,Canada,GMU,Building,,,,,,1
post,2025-01-19,212,"Meredith Ashley Drottar (‘10), 03/04/1988-01/15/2025 It is with deep sorrow that we announce  that our beloved partner, sister, aunt, friend, and Phan, Meredith Ashley “Doc Otter”  Drottar stepped through the portal at 6:02 pm January 15 at St. Mary’s Hosptial in Grand Junction.",Grand Junction,42.4042,-86.07308,populated place,Michigan,Van Buren County,United States,GMU,City,,,,,,1
post,2025-01-19,212,"Meredith lived a life out of movie and it started when she was born at home on March 4, 1988 in Leesburg, VA.",Leesburg,39.11566,-77.5636,seat of a second-order administrative division,Virginia,Loudoun County,United States,GMU,City,,,,,,3
post,2025-01-19,212,"Meredith lived a life out of movie and it started when she was born at home on March 4, 1988 in Leesburg, VA.",Virginia,37.54812,-77.44675,first-order administrative division,Virginia,,United States,GMU,State,,,,,,45
post,2025-01-19,212,"Her adventure really ramped up 5 days laters when the family packed up and moved cross country to Fort Collins, CO. Meredith would spend her entire childhood in Fort Collins and would go on to graduate from Rocky Mountain High School.",Fort Collins,40.58526,-105.08442,seat of a second-order administrative division,Colorado,Larimer County,United States,GMU,City,,,,,,3
post,2025-01-19,212,"Her adventure really ramped up 5 days laters when the family packed up and moved cross country to Fort Collins, CO. Meredith would spend her entire childhood in Fort Collins and would go on to graduate from Rocky Mountain High School.",Colorado,39.00027,-105.50083,first-order administrative division,Colorado,,United States,GMU,State,,,,,,4
post,2025-01-19,212,"Her adventure really ramped up 5 days laters when the family packed up and moved cross country to Fort Collins, CO. Meredith would spend her entire childhood in Fort Collins and would go on to graduate from Rocky Mountain High School.",Fort Collins,40.58526,-105.08442,seat of a second-order administrative division,Colorado,Larimer County,United States,GMU,City,,,,,,3
post,2025-01-19,212,"Her adventure really ramped up 5 days laters when the family packed up and moved cross country to Fort Collins, CO. Meredith would spend her entire childhood in Fort Collins and would go on to graduate from Rocky Mountain High School.",Rocky Mountain High School,44.79634,-108.50651,school,Wyoming,Big Horn County,United States,GMU,Building,,,,,,1
post,2025-01-19,212,"She worked for 15 years at Trader Joe’s in stores from Reston, VA to Denver, CO with stops in Albuquerque and Salt Lake City in between, leaving a litany of lasting lifelong friendships.",Reston,43.13011,-123.62008,populated place,Oregon,Douglas County,United States,GMU,City,,,,,,1
post,2025-01-19,212,"She worked for 15 years at Trader Joe’s in stores from Reston, VA to Denver, CO with stops in Albuquerque and Salt Lake City in between, leaving a litany of lasting lifelong friendships.",Virginia,37.54812,-77.44675,first-order administrative division,Virginia,,United States,GMU,State,,,,,,45
post,2025-01-19,212,"She worked for 15 years at Trader Joe’s in stores from Reston, VA to Denver, CO with stops in Albuquerque and Salt Lake City in between, leaving a litany of lasting lifelong friendships.",Denver,39.73915,-104.9847,seat of a first-order administrative division,Colorado,Denver County,United States,GMU,City,,,,,,1
post,2025-01-19,212,"She worked for 15 years at Trader Joe’s in stores from Reston, VA to Denver, CO with stops in Albuquerque and Salt Lake City in between, leaving a litany of lasting lifelong friendships.",Colorado,39.00027,-105.50083,first-order administrative division,Colorado,,United States,GMU,State,,,,,,4
post,2025-01-19,212,"She worked for 15 years at Trader Joe’s in stores from Reston, VA to Denver, CO with stops in Albuquerque and Salt Lake City in between, leaving a litany of lasting lifelong friendships.",Albuquerque,35.08449,-106.65114,seat of a second-order administrative division,New Mexico,Bernalillo County,United States,GMU,City,,,,,,2
post,2025-01-19,212,"She worked for 15 years at Trader Joe’s in stores from Reston, VA to Denver, CO with stops in Albuquerque and Salt Lake City in between, leaving a litany of lasting lifelong friendships.",Salt Lake City,40.76078,-111.89105,seat of a first-order administrative division,Utah,Salt Lake County,United States,GMU,City,,,,,,1
post,2025-01-19,212,"While living in Albuquerque, she met Timothy, a crusty, 1.0 veteran, who would become her companion and partner for the rest of her life.",Albuquerque,35.08449,-106.65114,seat of a second-order administrative division,New Mexico,Bernalillo County,United States,GMU,City,,,,,,2
post,2025-01-19,212,"Her counseling practice was flourishing and she purchased her first house in Cortez, CO.

Meredith attended her first Phish concert on September 5, 2021.",Cortez,37.34888,-108.58593,seat of a second-order administrative division,Colorado,Montezuma County,United States,GMU,City,,,,,,1
post,2025-01-19,212,"Her counseling practice was flourishing and she purchased her first house in Cortez, CO.

Meredith attended her first Phish concert on September 5, 2021.",Colorado,39.00027,-105.50083,first-order administrative division,Colorado,,United States,GMU,State,,,,,,4
post,2025-01-19,212,"A private service for family will be held on January 23 at Goes Funeral Home in Fort Collins, CO and will be followed by a public viewing.",Fort Collins,40.58526,-105.08442,seat of a second-order administrative division,Colorado,Larimer County,United States,GMU,City,,,,,,3
post,2025-01-19,212,"A private service for family will be held on January 23 at Goes Funeral Home in Fort Collins, CO and will be followed by a public viewing.",Colorado,39.00027,-105.50083,first-order administrative division,Colorado,,United States,GMU,State,,,,,,4
comment,2025-02-10,1,I worked with Meredith at Trader Joe's in Reston a lifetime ago.,Reston,38.96872,-77.3411,populated place,Virginia,Fairfax County,United States,GMU,City,,,,,,2
comment,2024-10-10,1,Why hike the Virginian Appalachias when we got nature right here?,Virginia Beach,36.85293,-75.97799,seat of a second-order administrative division,Virginia,City of Virginia Beach,United States,GMU,City,,,,,,1
comment,2022-10-24,4,I remember back in 2011 they'd have a huge booth set up outside Robinson with graphic imagery.,North Robinson,40.79256,-82.85713,populated place,Ohio,Crawford County,United States,GMU,City,,,,,,1
comment,2022-10-24,15,"This is the US, Mason is public property.",United States,39.76,-98.5,independent political entity,,,United States,GMU,Country,,,,,,41
comment,2022-10-24,15,"This is the US, Mason is public property.",Mason County,43.95625,-86.42258,second-order administrative division,Michigan,Mason County,United States,GMU,State,,,,,,28
comment,2022-10-24,22,One of the guys from the group outside Southside last week was singling people out to yell at so yes they’re harassing peopt,Southside,39.78121,-76.39468,populated place,Pennsylvania,York County,United States,GMU,City,,,,,,27
comment,2022-10-24,-4,God purposefully has plans for every life on Earth.,Earth,0.0,0.0,area,,,,GMU,Building,,,,,,4
comment,2021-04-14,7,"A is already gone, replaced by Horizon hall, I might be wrong though since I joined GMU as Horizon Hall was being made",Horizon,15.54248,73.7625,hotel,Goa,North Goa,India,GMU,Building,,,,,,1
comment,2021-04-14,7,"A is already gone, replaced by Horizon hall, I might be wrong though since I joined GMU as Horizon Hall was being made",Horizon City Town Hall,31.68359,-106.20183,building(s),Texas,El Paso County,United States,GMU,Building,,,,,,8
comment,2020-09-13,8,I literally am looking for online jobs so I can move out (somewhere cheap like RVA).,Farafangana,-22.82223,47.82615,seat of a first-order administrative division,Atsimo-Atsinanana,Farafangana District,Madagascar,GMU,City,,,,,,1
comment,2020-09-13,4,"I used to go to Richmond often and its a pretty cool place, much more fun than this area when it comes to social life.",Richmond,37.55376,-77.46026,seat of a first-order administrative division,Virginia,City of Richmond,United States,GMU,City,,,,,,6
comment,2020-03-05,8,*the US army wanting to draft me for ww3* (yes ik it’s a dead meme),United States,39.76,-98.5,independent political entity,,,United States,GMU,Country,,,,,,41
comment,2019-09-21,-6,Shenandoah speedsters represent,Shenandoah County,38.85839,-78.5706,second-order administrative division,Virginia,Shenandoah County,United States,GMU,State,,,,,,2
post,2026-03-07,206,I came across a random house near Mason pond but I never knew the lore of this place.,Mason Pond,41.64506,-72.80084,lake,Connecticut,Capitol Planning Region,United States,GMU,Natural Feature,,,,,,15
comment,2026-03-08,4,Average home for $3500/month in NY,New York City,40.71427,-74.00597,populated place,New York,,United States,GMU,City,,,,,,6
comment,2026-03-10,1,They bought the house on temu,Temù,46.25022,10.46592,seat of a third-order administrative division,Lombardy,Provincia di Brescia,Italy,GMU,City,,,,,,1
comment,2026-03-07,55,He’s currently in Canada for a family emergency.,Canada,60.10867,-113.64258,independent political entity,,,Canada,GMU,Country,,,,,,2
comment,2026-02-06,204,"ilia malinin, a figure skater for USA currently at the olympics, attends gmu",United States,39.76,-98.5,independent political entity,,,United States,GMU,Country,,,,,,41
comment,2026-02-06,78,"Figure Skater at the Olympics for USA, and he's a gmu student.",United States,39.76,-98.5,independent political entity,,,United States,GMU,Country,,,,,,41
comment,2026-02-06,7,How’s he gonna keep up with classes if he’s in Italy for the Olympics?,Italian Republic,42.83333,12.83333,independent political entity,,,Italy,GMU,Country,,,,,,3
comment,2026-02-10,1,Went to South Lakes High in Reston.,South Lakes High School,38.93205,-77.33951,school,Virginia,Fairfax County,United States,GMU,Building,,,,,,1
comment,2026-02-10,1,Went to South Lakes High in Reston.,South Reston,53.32746,0.10472,populated place,England,Lincolnshire,United Kingdom,GMU,City,,,,,,1
comment,2026-02-07,15,GO ILIA!,Ilia,45.93333,22.65,seat of a second-order administrative division,Hunedoara County,Comuna Ilia,Romania,GMU,City,,,,,,1
comment,2025-09-01,14,"I biked the w&od to Purcellville last weekend and kept seeing these walking on the trail and were wondering what they were, next time I will run them over lol",Purcellville,39.13677,-77.71472,populated place,Virginia,Loudoun County,United States,GMU,City,,,,,,1
comment,2025-09-02,16,On a boat shipment filled with stone from Asia.,Asia,29.84064,89.29688,continent,,,,GMU,Country,,,,,,3
comment,2025-09-02,16,The stone had their eggs on them which eventually made land fall in Pennsylvania.,Pennsylvania,40.8,-77.7,first-order administrative division,Pennsylvania,,United States,GMU,State,,,,,,1
comment,2025-09-02,16,They have been killing farmers crops and wineries grape vines here in virginia at wine makers.,Virginia,37.54812,-77.44675,first-order administrative division,Virginia,,United States,GMU,State,,,,,,45
post,2025-06-27,204,I got all the emails from tassel and the university congratulating me on graduating!,Lac Tassel,46.32639,-76.53,lake,Quebec,Outaouais,Canada,GMU,Natural Feature,,,,,,1
comment,2025-06-30,1,It happened to me too in TN.,Tennessee,35.75035,-86.25027,first-order administrative division,Tennessee,,United States,GMU,State,,,,,,2
comment,2025-02-28,35,"In my accounting class, the first exam had a question about which US president was on the homepage of the class.",United States,39.76,-98.5,independent political entity,,,United States,GMU,Country,,,,,,41
comment,2021-05-26,53,Students with approved extensions must get vaccinated when they arrive in the United States.,Territories of the United States,35.27766,-102.35403,region,,,United States,GMU,Region,,,,,,4
comment,2021-06-10,2,Can we get vaccinated when we reach GMU?,Gauriyamau,26.75703,81.79366,railroad station,Uttar Pradesh,Ayodhya,India,GMU,Road,,,,,,9
comment,2021-06-10,2,I’m from India and the government is currently giving vaccines for  people aged 18 and above .,Republic of India,22.0,79.0,independent political entity,,,India,GMU,Country,,,,,,2
comment,2020-05-20,9,"Go to community college I transferred from nova and I saved over $30,000.",Nõva,59.21639,23.6725,populated place,Lääne,Lääne-Nigula vald,Estonia,GMU,City,,,,,,1
comment,2020-05-21,2,"That won't happen in the next decade though, just like GW and Georgetown.",Golshanābād,36.6512,59.09081,populated place,Razavi Khorasan,,Iran,GMU,City,,,,,,1
comment,2020-05-21,2,"That won't happen in the next decade though, just like GW and Georgetown.",Georgetown,31.88461,-85.10743,seat of a second-order administrative division,Georgia,Quitman County,United States,GMU,City,,,,,,1
comment,2020-03-31,6,Im in a class where we have to create a policy... A freaking government policy... for Fairfax County.,Fairfax County,38.83469,-77.27622,second-order administrative division,Virginia,Fairfax County,United States,GMU,State,,,,,,14
comment,2020-03-30,14,Here in NJ it's been that way for awhile.,New Jersey,40.16706,-74.49987,first-order administrative division,New Jersey,,United States,GMU,State,,,,,,1
comment,2020-03-31,6,"We really do need it, I've been more than willing to try to do my stuff, but it's kind of hard to do that when just across the Lincoln Tunnel, 30 minutes from me, Manhattan is having to use refrigerators as temporary mortuaries.",New York City,40.71427,-74.00597,populated place,New York,,United States,GMU,City,,,,,,6
comment,2020-03-31,6,I'm honestly scared of that coming over here in Jersey.,Bailiwick of Jersey,49.21667,-2.11667,political entity,,,Jersey,GMU,Country,,,,,,1
